[
  {
    "nombre": "Catedral de Guadalajara",
    "direccion": "Av. Fray Antonio Alcalde, Zona Centro, Guadalajara, Jal.",
    "lat_old": 20.677034,
    "lng_old": -103.346984,
    "lat_new": 20.677034,
    "lng_new": -103.346984,
    "formatted_address": "Av. Alcalde 10, Zona Centro, 44100 Guadalajara, Jal., México",
    "ok": true,
    "start": 131722,
    "end": 132586
  },
  {
    "nombre": "Palacio de Gobierno",
    "direccion": "Av. Corona, Zona Centro, Guadalajara, Jal.",
    "lat_old": 20.6760966,
    "lng_old": -103.3465039,
    "lat_new": 20.6760966,
    "lng_new": -103.3465039,
    "formatted_address": "Av. Ramón Corona 31, Zona Centro, 44100 Guadalajara, Jal., México",
    "ok": true,
    "start": 132605,
    "end": 133069
  },
  {
    "nombre": "Rotonda de los Jaliscienses Ilustres",
    "direccion": "Av. Fray Antonio Alcalde, Zona Centro, Guadalajara, Jal.",
    "lat_old": 20.6778865,
    "lng_old": -103.3470261,
    "lat_new": 20.6778865,
    "lng_new": -103.3470261,
    "formatted_address": "Av. Alcalde 108, Zona Centro, 44100 Guadalajara, Jal., México",
    "ok": true,
    "start": 133088,
    "end": 134049
  },
  {
    "nombre": "Teatro Degollado",
    "direccion": "Plaza de la Liberación, Zona Centro, Guadalajara, Jal.",
    "lat_old": 20.6770173,
    "lng_old": -103.3447566,
    "lat_new": 20.6770173,
    "lng_new": -103.3447566,
    "formatted_address": "C. Degollado s/n, Zona Centro, 44100 Guadalajara, Jal., México",
    "ok": true,
    "start": 134068,
    "end": 134516
  },
  {
    "nombre": "Museo Regional",
    "direccion": "Calle Liceo 60, Zona Centro, Guadalajara, Jal.",
    "lat_old": 20.6776318,
    "lng_old": -103.346431,
    "lat_new": 20.6776318,
    "lng_new": -103.346431,
    "formatted_address": "C. Liceo 60, Zona Centro, 44100 Guadalajara, Jal., México",
    "ok": true,
    "start": 134535,
    "end": 134940
  },
  {
    "nombre": "Museo Cabañas",
    "direccion": "Cabañas 8, Zona Centro, Guadalajara, Jal.",
    "lat_old": 20.6765575,
    "lng_old": -103.3382462,
    "lat_new": 20.6765575,
    "lng_new": -103.3382462,
    "formatted_address": "C. Cabañas 8, Las Fresas, 44360 Guadalajara, Jal., México",
    "ok": true,
    "start": 134959,
    "end": 135440
  },
  {
    "nombre": "Mercado de San Juan de Dios",
    "direccion": "Calle Javier Mina, Zona Centro, Guadalajara, Jal.",
    "lat_old": 20.6755148,
    "lng_old": -103.3398522,
    "lat_new": 20.6755148,
    "lng_new": -103.3398522,
    "formatted_address": "C. Dionisio Rodríguez 52, San Juan de Dios, 44360 Guadalajara, Jal., México",
    "ok": true,
    "start": 135459,
    "end": 136131
  },
  {
    "nombre": "Glorieta de la Minerva",
    "direccion": "Av. López Mateos y Av. Vallarta, Guadalajara, Jal.",
    "lat_old": 20.6743943,
    "lng_old": -103.3874128,
    "lat_new": 20.6743943,
    "lng_new": -103.3874128,
    "formatted_address": "Av. Ignacio L Vallarta, Vallarta, 44110 Guadalajara, Jal., México",
    "ok": true,
    "start": 136150,
    "end": 136606
  },
  {
    "nombre": "Los Arcos de Guadalajara",
    "direccion": "Av. Vallarta, Col. Americana, Guadalajara, Jal.",
    "lat_old": 20.6744549,
    "lng_old": -103.3848249,
    "lat_new": 20.6744549,
    "lng_new": -103.3848249,
    "formatted_address": "Av. Ignacio L Vallarta 2485, Arcos Vallarta, 44130 Guadalajara, Jal., México",
    "ok": true,
    "start": 136625,
    "end": 137060
  },
  {
    "nombre": "RESTAURANT Casa Dolores",
    "direccion": "Paseo Alcalde 22, Col. Centro. Guadalajara, Jal.",
    "lat_old": 20.6799983,
    "lng_old": -103.3469833,
    "lat_new": 20.6799983,
    "lng_new": -103.3469833,
    "formatted_address": "Av. Alcalde 22, Centro, 44100 Guadalajara, Jal., México",
    "ok": true,
    "start": 137117,
    "end": 138522
  },
  {
    "nombre": "Ex Convento de Santa Teresa",
    "direccion": "C. Donato Guerra 25, Zona Centro, 44100 Guadalajara, Jal.",
    "lat_old": 20.6759382,
    "lng_old": -103.3504487,
    "lat_new": 20.6759382,
    "lng_new": -103.3504487,
    "formatted_address": "C. Donato Guerra 25, Zona Centro, 44100 Guadalajara, Jal., México",
    "ok": true,
    "start": 138541,
    "end": 140008
  },
  {
    "nombre": "CASA ANGUIANO Artículos Religiosos",
    "direccion": "Av. Alcalde 113, Paseo Alcalde.",
    "lat_old": 20.6782519,
    "lng_old": -103.3477103,
    "lat_new": 20.6782519,
    "lng_new": -103.3477103,
    "formatted_address": "Av. Alcalde 113, Zona Centro, 44100 Guadalajara, Jal., México",
    "ok": true,
    "start": 140027,
    "end": 141389
  },
  {
    "nombre": "BIRRIERIA El Pilón de los Arrieros",
    "direccion": "Calle Galeana 388, Plaza de las 9 esquinas, Centro Histórico. Guadalajara, Jal.",
    "lat_old": 20.670644,
    "lng_old": -103.34876,
    "lat_new": 20.670644,
    "lng_new": -103.34876,
    "formatted_address": "C/ Galeana 388, Zona Centro, 44100 Guadalajara, Jal., México",
    "ok": true,
    "start": 141408,
    "end": 142952
  },
  {
    "nombre": "GUARDIÁN CAFÉ-GALERÍA",
    "direccion": "Av. Alcalde 207, Col. Centro",
    "lat_old": 20.6797854,
    "lng_old": -103.3477979,
    "lat_new": 20.6797854,
    "lng_new": -103.3477979,
    "formatted_address": "Av. Alcalde 207, Zona Centro, 44200 Guadalajara, Jal., México",
    "ok": true,
    "start": 142971,
    "end": 144413
  },
  {
    "nombre": "TORTAS AHOGADAS Las Famosas",
    "direccion": "Paseo Degollado 128, Col. Centro, Guadalajara, Jal.",
    "lat_old": 20.6772053,
    "lng_old": -103.3435073,
    "lat_new": 20.6772053,
    "lng_new": -103.3435073,
    "formatted_address": "P.º Degollado 128, Zona Centro, 44100 Guadalajara, Jal., Mexico",
    "ok": true,
    "start": 144432,
    "end": 145095
  },
  {
    "nombre": "HOTEL Aló",
    "direccion": "Paseo Degollado 54, Zona Centro, Guadalajara, Jal.",
    "lat_old": 20.6773343,
    "lng_old": -103.3414626,
    "lat_new": 20.6773343,
    "lng_new": -103.3414626,
    "formatted_address": "P.º Degollado 54, Zona Centro, 44100 Guadalajara, Jal., Mexico",
    "ok": true,
    "start": 145114,
    "end": 146548
  },
  {
    "nombre": "HOTEL Olá",
    "direccion": "Av. Chapultepec Norte 20A, Ladrón de Guevara – Americana, 44600 Guadalajara, Jal.",
    "lat_old": 20.6763536,
    "lng_old": -103.3681944,
    "lat_new": 20.6763536,
    "lng_new": -103.3681944,
    "formatted_address": "Av. Chapultepec Nte. 20A, Ladrón de Guevara, Americana, 44600 Guadalajara, Jal., México",
    "ok": true,
    "start": 146567,
    "end": 147552
  },
  {
    "nombre": "RESTAURANT Los Paceños",
    "direccion": "Morelos 126, Centro Histórico de Guadalajara, Jal.",
    "lat_old": 20.6767717,
    "lng_old": -103.3434121,
    "lat_new": 20.6767717,
    "lng_new": -103.3434121,
    "formatted_address": "C. José María Morelos 126, Zona Centro, 44100 Guadalajara, Jal., México",
    "ok": true,
    "start": 147571,
    "end": 149083
  },
  {
    "nombre": "TARASKA Helados y Paletas",
    "direccion": "Morelos 99, Centro Histórico de Guadalajara, Jal.",
    "lat_old": 20.6766186,
    "lng_old": -103.3428764,
    "lat_new": 20.6766186,
    "lng_new": -103.3428764,
    "formatted_address": "C. José María Morelos 99, Zona Centro, 44100 Guadalajara, Jal., México",
    "ok": true,
    "start": 149102,
    "end": 150621
  },
  {
    "nombre": "TARASKA Helados y Paletas",
    "direccion": "Ramón Corona 156, Zona Centro Guadalajara, Jal.",
    "lat_old": 20.6742713,
    "lng_old": -103.3465562,
    "lat_new": 20.6742713,
    "lng_new": -103.3465562,
    "formatted_address": "Av. Ramón Corona 156, Zona Centro, 44100 Guadalajara, Jal., México",
    "ok": true,
    "start": 150640,
    "end": 151608
  },
  {
    "nombre": "EX-CONVENTO DE SANTA TERESA",
    "direccion": "C. Donato Guerra 25, Zona Centro, 44100 Guadalajara, Jal.",
    "lat_old": 20.6759382,
    "lng_old": -103.3504487,
    "lat_new": 20.6759382,
    "lng_new": -103.3504487,
    "formatted_address": "C. Donato Guerra 25, Zona Centro, 44100 Guadalajara, Jal., México",
    "ok": true,
    "start": 151627,
    "end": 152640
  },
  {
    "nombre": "HOTEL ONE Guadalajara Centro",
    "direccion": "Av. 16 de Septiembre No. 16, Centro Histórico, Guadalajara, Jal.",
    "lat_old": 20.6763225,
    "lng_old": -103.3475391,
    "lat_new": 20.6763225,
    "lng_new": -103.3475391,
    "formatted_address": "Av. 16 de Septiembre 16, Zona Centro, 44100 Guadalajara, Jal., México",
    "ok": true,
    "start": 152659,
    "end": 153514
  },
  {
    "nombre": "RAGAZZA Fashion",
    "direccion": "Av. Juárez 210, Colonia Centro Guadalajara, Jal.",
    "lat_old": 20.6753489,
    "lng_old": -103.345839,
    "lat_new": 20.6753489,
    "lng_new": -103.345839,
    "formatted_address": "Av Juárez 210, Zona Centro, 44100 Guadalajara, Jal., México",
    "ok": true,
    "start": 153533,
    "end": 155522
  },
  {
    "nombre": "RAGAZZA Fashion",
    "direccion": "Av. Vallarta 1291, Col. Americana, Guadalajara, Jal.",
    "lat_old": 20.6744401,
    "lng_old": -103.3648251,
    "lat_new": 20.6744401,
    "lng_new": -103.3648251,
    "formatted_address": "Av. Ignacio L Vallarta 1291, Col Americana, Americana, 44160 Guadalajara, Jal., México",
    "ok": true,
    "start": 155541,
    "end": 156463
  },
  {
    "nombre": "RESTAURANT Casa Dolores",
    "direccion": "Av. Alcalde 22, Paseo Alcalde.",
    "lat_old": 20.6799983,
    "lng_old": -103.3469833,
    "lat_new": 20.6799983,
    "lng_new": -103.3469833,
    "formatted_address": "Av. Alcalde 22, Centro, 44100 Guadalajara, Jal., México",
    "ok": true,
    "start": 156482,
    "end": 157302
  },
  {
    "nombre": "RESTAURANT Casa Dolores",
    "direccion": "Av. Chapultepec Sur 451, Col. Americana.",
    "lat_old": 20.6691582,
    "lng_old": -103.3682445,
    "lat_new": 20.6691582,
    "lng_new": -103.3682445,
    "formatted_address": "Av. Chapultepec Sur 451, Col Americana, Americana, 44160 Guadalajara, Jal., México",
    "ok": true,
    "start": 157321,
    "end": 158083
  },
  {
    "nombre": "RESTAURANT Alma Jalisco",
    "direccion": "Av. Miguel Hidalgo y Costilla 469-5to. piso, Zona Centro, 44100 Guadalajara, Jal.",
    "lat_old": 20.6775006,
    "lng_old": -103.3494319,
    "lat_new": 20.6775006,
    "lng_new": -103.3494319,
    "formatted_address": "Av. Miguel Hidalgo y Costilla 469-5to. piso, Zona Centro, 44100 Guadalajara, Jal., México",
    "ok": true,
    "start": 158102,
    "end": 158917
  },
  {
    "nombre": "CONOCE JALISCO Tours",
    "direccion": "Calle Liceo 148, Col. Centro, Guadalajara, Jal.",
    "lat_old": 20.67874,
    "lng_old": -103.3465796,
    "lat_new": 20.67874,
    "lng_new": -103.3465796,
    "formatted_address": "Los Sabores D’ Alis, C. Liceo 148, Zona Centro, 44100 Guadalajara, Jal., Mexico",
    "ok": true,
    "start": 158936,
    "end": 159515
  },
  {
    "nombre": "CASA ANGUIANO Artículos Religiosos",
    "direccion": "Av. Fray Antonio Alcalde 113, Paseo Alcalde, Col. Centro, Guadalajara, Jal.",
    "lat_old": 20.6782519,
    "lng_old": -103.3477103,
    "lat_new": 20.6782519,
    "lng_new": -103.3477103,
    "formatted_address": "Av. Alcalde 113, Zona Centro, 44100 Guadalajara, Jal., México",
    "ok": true,
    "start": 159534,
    "end": 160582
  },
  {
    "nombre": "RESTAURANT BAR El Mesón",
    "direccion": "Calle Pino Suárez 92, Centro Histórico, Guadalajara, Jal.",
    "lat_old": 20.6779142,
    "lng_old": -103.3457776,
    "lat_new": 20.6779142,
    "lng_new": -103.3457776,
    "formatted_address": "C. Pino Suárez 92, Zona Centro, 44100 Guadalajara, Jal., México",
    "ok": true,
    "start": 160601,
    "end": 161396
  },
  {
    "nombre": "BIRRIERIA El Pilón de los Arrieros",
    "direccion": "Calle Galeana 388, Plaza de las 9 esquinas, Centro Histórico. Guadalajara, Jal.",
    "lat_old": 20.670644,
    "lng_old": -103.34876,
    "lat_new": 20.670644,
    "lng_new": -103.34876,
    "formatted_address": "C/ Galeana 388, Zona Centro, 44100 Guadalajara, Jal., México",
    "ok": true,
    "start": 161415,
    "end": 162598
  },
  {
    "nombre": "CARNITAS Uruapan",
    "direccion": "Calle Colón 368, Plaza de las 9 esquinas, Centro Histórico. Guadalajara, Jal.",
    "lat_old": 20.6708807,
    "lng_old": -103.348373,
    "lat_new": 20.6708807,
    "lng_new": -103.348373,
    "formatted_address": "C. Colón 368, Zona Centro, 44100 Guadalajara, Jal., Mexico",
    "ok": true,
    "start": 162617,
    "end": 163621
  },
  {
    "nombre": "FARMACIA Toledo",
    "direccion": "Paseo Alcalde 409, Centro Histórico. Guadalajara, Jal.",
    "lat_old": 20.6830116,
    "lng_old": -103.3479814,
    "lat_new": 20.6830116,
    "lng_new": -103.3479814,
    "formatted_address": "Av. Alcalde 409, Zona Centro, 44280 Guadalajara, Jal., Mexico",
    "ok": true,
    "start": 163640,
    "end": 164243
  },
  {
    "nombre": "BOTICA Toledo",
    "direccion": "Calle Herrera y Cairo 422, Col. Centro, Guadalajara, Jal.",
    "lat_old": 20.6828461,
    "lng_old": -103.3480833,
    "lat_new": 20.6828461,
    "lng_new": -103.3480833,
    "formatted_address": "Herrera y Cairo 422, Zona Centro, 44200 Guadalajara, Jal., México",
    "ok": true,
    "start": 164262,
    "end": 164866
  },
  {
    "nombre": "MERCADO de las Flores",
    "direccion": "Calle Mezquitán esquina Jesús García",
    "lat_old": 20.689247,
    "lng_old": -103.3531346,
    "lat_new": 20.689247,
    "lng_new": -103.3531346,
    "formatted_address": "C. Mezquitán 820, Artesanos, 44200 Guadalajara, Jal., México",
    "ok": true,
    "start": 164885,
    "end": 165530
  },
  {
    "nombre": "CALANDRIAS eléctricas",
    "direccion": "Ubicadas sobre Av. Hidalgo, a una cuadra de La Catedral",
    "lat_old": 20.6765909,
    "lng_old": -103.3452977,
    "lat_new": 20.6765909,
    "lng_new": -103.3452977,
    "formatted_address": "C. José María Morelos 242, Zona Centro, 44100 Guadalajara, Jal., México",
    "ok": true,
    "start": 165549,
    "end": 166428
  },
  {
    "nombre": "LA GLORIA Artículos Religiosos",
    "direccion": "Calle Pedro Loza 189, Col. Centro, Guadalajara, Jal.",
    "lat_old": 20.6792802,
    "lng_old": -103.348433,
    "lat_new": 20.6792802,
    "lng_new": -103.348433,
    "formatted_address": "C. Pedro Loza 189, Zona Centro, 44100 Guadalajara, Jal., México",
    "ok": true,
    "start": 166447,
    "end": 167190
  },
  {
    "nombre": "CASA CARRANZA Hotel Airbnb",
    "direccion": "Calle Venustiano Carranza 242, Col. Centro, Guadalajara",
    "lat_old": 20.6810377,
    "lng_old": -103.3442471,
    "lat_new": 20.7238665,
    "lng_new": -103.397,
    "formatted_address": "Col. Centro, Zapopan, Jal., Mexico",
    "ok": false,
    "advertencia": "Número de dirección no coincide. Nuestra: Calle Venustiano Carranza 242, Col. Centro, Guadalajara | Geo: Col. Centro, Zapopan, Jal., Mexico",
    "start": 167209,
    "end": 167973
  },
  {
    "nombre": "RESTAURANT Guasanga",
    "direccion": "Calle Morelos 401, Primer piso, Col. Centro, Guadalajara",
    "lat_old": 20.6765126,
    "lng_old": -103.348303,
    "lat_new": 20.7225425,
    "lng_new": -103.3853375,
    "formatted_address": "C. José María Morelos 401, Tepeyac, 45100 Zapopan, Jal., Mexico",
    "ok": true,
    "start": 167992,
    "end": 168793
  },
  {
    "nombre": "CANTINA Los Famosos Equipales",
    "direccion": "Calle Juan Álvarez 704, Col. Centro, Guadalajara",
    "lat_old": 20.6845525,
    "lng_old": -103.3522648,
    "lat_new": 20.6845525,
    "lng_new": -103.3522648,
    "formatted_address": "C. Juan Álvarez 704, Artesanos, 44200 Guadalajara, Jal., México",
    "ok": true,
    "start": 168812,
    "end": 169601
  },
  {
    "nombre": "ACADEMIA Nuevo Jalisco",
    "direccion": "Av. Hidalgo 107, Col. Centro, Guadalajara, Jal.",
    "lat_old": 20.6773869,
    "lng_old": -103.3431894,
    "lat_new": 20.6773869,
    "lng_new": -103.3431894,
    "formatted_address": "Av. Miguel Hidalgo y Costilla 107-Piso 4, Zona Plaza Tapatía, 44100 Guadalajara, Jal., México",
    "ok": true,
    "start": 170396,
    "end": 170826
  },
  {
    "nombre": "MIMOSA Artículos Religiosos",
    "direccion": "Av. Enrique Díaz de León 13, Col. Villaseñor, Guadalajara, Jal.",
    "lat_old": 20.6764789,
    "lng_old": -103.3595036,
    "lat_new": 20.6764789,
    "lng_new": -103.3595036,
    "formatted_address": "Av Enrique Díaz de León Nte 13, Col Americana, Zona Centro, 44200 Guadalajara, Jal., Mexico",
    "ok": true,
    "start": 170845,
    "end": 171670
  },
  {
    "nombre": "TAKASAMI Clothing",
    "direccion": "Calle Matamoros No. 12, Centro Tlaquepaque, Jal.",
    "lat_old": 20.6391046,
    "lng_old": -103.3127007,
    "lat_new": 20.6391046,
    "lng_new": -103.3127007,
    "formatted_address": "Calle Matamoros 12, Centro, 45500 San Pedro Tlaquepaque, Jal., México",
    "ok": true,
    "start": 171689,
    "end": 172582
  }
]